{
  "students": [
    {
      "id": "1",
      "name": "john",
      "location": "pune",
      "phone": "1111",
      "courses": [
        "java",
        "selenium"
      ]
    },
    {
      "id": "2",
      "name": "alex",
      "location": "Aus",
      "phone": "2222",
      "courses": [
        "SQL",
        "DataAnalyst"
      ]
    },
    {
      "id": "3",
      "name": "Travis",
      "phone": "33933",
      "location": "Delhi",
      "courses": [
        "SQL",
        "DBMS"
      ]
    },
    {
      "id": "3",
      "name": "Travis",
      "phone": "3333",
      "location": "Delhi",
      "courses": [
        "SQL",
        "DBMS"
      ]
    },
    {
      "id": "4",
      "name": "Mark",
      "phone": "4444",
      "location": "Perth",
      "courses": [
        "MySQL",
        "Oracle"
      ]
    },
    {
      "id": "5",
      "courses": [
        "Ruby",
        "NoSql"
      ],
      "phone": "5555",
      "name": "Smith",
      "location": "Sydeny"
    },
    {
      "id": "6",
      "name": "QDK",
      "phone": "6666",
      "location": "SAfrica",
      "courses": [
        "GoLang",
        "Google"
      ]
    },
    {
      "id": "7",
      "name": "Thala",
      "phone": "7777",
      "location": "Ranchi",
      "courses": [
        "JavaScript",
        "PlayWrite"
      ]
    }
  ]
}